{
  "Logging": {
    "LogLevel": {
      "Default": "Information",
      "Microsoft.AspNetCore": "Warning"
    }
  },
  "AllowedHosts": "*",
  "ConnectionStrings": {
    "DefaultConnection": "Server=localhost;Database=DisasterResponseDb;Trusted_Connection=True;MultipleActiveResultSets=true;TrustServerCertificate=True"
  },
  "JwtSettings": {
    "Key": "DisasterPakistanSystemSecretKey2026!SuperSecure",
    "Issuer": "DisasterResponseSystem",
    "Audience": "DisasterResponseSystemUsers",
    "ExpiryInHours": 24
  },
  "DisasterMonitoring": {
    "WeatherCheckIntervalMinutes": 5,
    "EarthquakeCheckIntervalMinutes": 5,
    "PakistanCities": [
      {
        "Name": "Lahore",
        "Latitude": 31.5204,
        "Longitude": 74.3587
      },
      {
        "Name": "Karachi",
        "Latitude": 24.8607,
        "Longitude": 67.0011
      },
      {
        "Name": "Islamabad",
        "Latitude": 33.6844,
        "Longitude": 73.0479
      },
      {
        "Name": "Peshawar",
        "Latitude": 34.0151,
        "Longitude": 71.5249
      },
      {
        "Name": "Quetta",
        "Latitude": 30.1798,
        "Longitude": 66.9750
      },
      {
        "Name": "Multan",
        "Latitude": 30.1575,
        "Longitude": 71.5249
      },
      {
        "Name": "Faisalabad",
        "Latitude": 31.4504,
        "Longitude": 73.1350
      },
      {
        "Name": "Rawalpindi",
        "Latitude": 33.5651,
        "Longitude": 73.0169
      }
    ],
    "Thresholds": {
      "RainfallMmPerHour": 15.0,
      "WindSpeedKmh": 60.0,
      "WindGustsKmh": 80.0,
      "TemperatureCelsius": 43.0,
      "ApparentTemperatureCelsius": 45.0,
      "HumidityPercent": 85,
      "UvIndexHigh": 9.0,
      "AqiUnhealthy": 150,
      "EarthquakeMagnitude": 4.5
    }
  },
  "VapidKeys": {
    "PublicKey": "BFV_eB-Wv6N2L655aX9R4vF-Y82Z1O5vTzLz94Z56hD2n9-qPuwVxq5-JwV_eB-Wv6N2L655aX9R4vF-Y82Z1O5v",
    "PrivateKey": "YOUR_PRIVATE_KEY_HERE_1234567890",
    "Subject": "mailto:admin@ndma.gov.pk"
  },
  "AnthropicApiKey": ""
}
